[
    {
        "name":"Graviera Naxou",
        "origin":"Naxos Island, Greece",
        "lat": 37.08,
        "lng": 25.37,
        "rating":"4.6",
        "fun": "Graviera Naxou was inspired by the Swiss Gruyère",
        "content": "Cow's milk (at least 80%) with addition of sheep and goat's milk (up to 20%)",
        "Url": "https://www.tasteatlas.com/graviera-naxou"
    },
    {
        "name":"Parmigiano Reggiano",
        "origin":"Province of Parma, Italy",
        "lat": 44.81,
        "lng": 10.33,
        "rating":"4.6",
        "fun": "Parmigiano Reggiano is officially considered a 'space food', chosen by both NASA and Russian space programs for astronaut diets",
        "content": "100% natural, raw, cow's milk cheese",
        "Url": "https://www.tasteatlas.com/parmigiano-reggiano" 
    },
    {
        "name":"Queijo de Azeitão",
        "origin":"Palmela, Portugal",
        "lat": 38.58,
        "lng": -8.90,
        "rating":"4.6",
        "fun": "Besides the taste, one of the most unique things about Azeitão is the wild thistle rennet that is used to make the sheep's milk coagulate",
        "content": "Unpasteurized sheep's milk",
        "Url": "https://www.tasteatlas.com/queijo-de-azeitao" 
    },
    {
        "name":"Mozzarella di Bufala Campana",
        "origin":"Campania, Italy",
        "lat": 40.93,
        "lng": 14.20,
        "rating":"4.5",
        "fun": "Mozzarella di Bufala Campana DOP is protected by European law, meaning it can only be made in specific areas of southern Italy",
        "content": "made from the milk of the Italian Mediterranean buffalo",
        "Url": "https://www.tasteatlas.com/mozzarella-di-bufala-campana" 
    },
    {
        "name":"Graviera Kritis",
        "origin":"Crete, Greece",
        "lat": 35.24,
        "lng": 24.91,
        "rating":"4.5",
        "fun": "The cheese matures for 3 to 5 months before going to market",
        "content": "Up to 20 percent goat's milk mixed with sheep's milk, and it must all come from free-range animals",
        "Url": "https://www.tasteatlas.com/graviera-kritis" 
    },
    {
        "name":"Queijo Serra da Estrela",
        "origin":"Serra da Estrela, Portugal",
        "lat": 40.51,
        "lng": -7.85,
        "rating":"4.5",
        "fun": "The Serra da Estrela cheese is a recipe handed down through generations",
        "content": "Milk of Bordaleira Serra da Estrela and Churra Mondegueira breeds of sheep",
        "Url": "https://www.tasteatlas.com/queijo-serra-da-estrela" 
    },
    {
        "name":"Pecorino Sardo",
        "origin":"Sardinia, Italy",
        "lat": 40.08,
        "lng": 8.98,
        "rating":"4.5",
        "fun": "The name does not derive from the capital but from history: it was the ideal food for the sustenance of the Roman army",
        "content": "100% whole sheep's milk",
        "Url": "https://www.tasteatlas.com/pecorino-sardo" 
    },
    {
        "name":"Kefalograviera",
        "origin":"Epirus, Greece",
        "lat": 39.60,
        "lng": 20.78,
        "rating":"4.5",
        "fun": "It seems to be a relatively recent innovation, the submission document from 1996 said it had only come into production “over recent decades”",
        "content": "Made with cow, goat, and sheep milk that is typically pasteurized",
        "Url": "https://www.tasteatlas.com/kefalograviera" 
    },
    {
        "name":"Burrata",
        "origin":"Apulia, Italy",
        "lat": 41.01,
        "lng": 16.73,
        "rating":"4.4",
        "fun": "Burrata is as white as mozzarella but comes with a strange narrowing at the top, like a giant dumpling",
        "content": "Italian cow's milk (occasionally buffalo milk) that is typically pasteurized or unpasteurized",
        "Url": "https://www.tasteatlas.com/burrata" 
    },
    {
        "name":"Saint-Félicien",
        "origin":"Rhône-Alpes, France",
        "lat": 45.46,
        "lng": 4.62,
        "rating":"4.4",
        "fun": "It is the invention of an 80-year-old creamery just south of Lyon",
        "content": "Raw or pasteurized cow's milk",
        "Url": "https://www.tasteatlas.com/saint-felicien" 
    },
    {
        "name":"Metsovone",
        "origin":"Metsovo, Greece",
        "lat": 39.77,
        "lng": 21.18,
        "rating":"4.4",
        "fun": "Metsovone may be made in a similar way to a smoked provolone, but the two cheeses have different tastes due to distinct cheesemaking processes",
        "content": "Made with cow, goat, or sheep milk that is typically unpasteurized",
        "Url": "https://www.tasteatlas.com/metsovone"  
    },
    {
        "name":"Pecorino Toscano",
        "origin":"Tuscany, Italy",
        "lat": 43.77,
        "lng": 11.25,
        "rating":"4.4",
        "fun": "Pecorino Romano is one of the few cheeses in the world that boasts a thousand-year history",
        "content": "100% whole sheep’s milk",
        "Url": "https://www.tasteatlas.com/pecorino-toscano" 
    },
    {
        "name":"Saint-André",
        "origin":"Coutances, France",
        "lat": 49.05,
        "lng": -1.44,
        "rating":"4.4",
        "fun": "Saint-André is a notoriously rich French 'triple cream' cheese with a 75% butterfat content, making it closer to butter than typical Brie",
        "content": "Made with cow milk that is typically raw",
        "Url": "https://www.tasteatlas.com/saint-andre" 
    },
    {
        "name":"Pecorino Siciliano",
        "origin":"Sicily, Italy",
        "lat": 37.15,
        "lng": 13.79,
        "rating":"4.4",
        "fun": "Pecorino Siciliano, one of Europe's oldest cheeses with roots in ancient Greece, is famously mentioned in Homer's Odyssey (written around the 8th Century BC)",
        "content": "raw, whole sheep's milk (ewe's milk) sourced from animals raised in Sicily",
        "Url": "https://www.tasteatlas.com/pecorino-siciliano"  
    },
    {
        "name":"Redykołka",
        "origin":"Podhale, Poland",
        "lat": 50.35,
        "lng": 21.00,
        "rating":"4.4",
        "fun": "It is made from the leftover curds of the larger oscypek, and it is traditionally molded into intricate, decorative shapes like animals, birds, or hearts",
        "content": "Primarily made from unpasteurized sheep's milk in the Podhale region, may include up to 40% cow's milk from the Polish Red Cow breed. ",
        "Url": "https://www.tasteatlas.com/redykoka" 
    },
    {
        "name":"Livanjski sir",
        "origin":"Livno, Bosnia and Herzegovina",
        "lat": 43.85,
        "lng": 17.00,
        "rating":"4.4",
        "fun": "Livanjski sir was first produced in 1886",
        "content": "Sheep's milk, or mixture of sheep's and cow's milk",
        "Url": "https://www.tasteatlas.com/livanjski-sir"  
    },
    {
        "name":"Brillat-Savarin",
        "origin":"Forges-les-Eaux, France",
        "lat": 49.61,
        "lng": 1.55,
        "rating":"4.4",
        "fun": "Brillat-Savarin is a decadent 'triple cream' French cheese with over 75% fat content, often called the 'foie gras' of cheeses",
        "content": "Made with good cow's milk",
        "Url": "https://www.tasteatlas.com/brillat-savarin"  
    },
    {
        "name":"Canastra",
        "origin":"Minas Gerais, Brazil",
        "lat": -18.51,
        "lng": -44.56,
        "rating":"4.4",
        "fun": "It was the first Brazilian cheese to win an international award in France (2015)",
        "content": "cow's milk (unpasteurized)",
        "Url": "https://www.tasteatlas.com/canastra"  
    },
    {
        "name":"Gołka",
        "origin":"Silesian Voivodeship, Poland",
        "lat": 50.25,
        "lng": 19.00,
        "rating":"4.4",
        "fun": "It is often produced in cylindrical, 'log' shapes rather than the classic spindle-shaped mold used for traditional highland cheese",
        "content": "100% goat's milk",
        "Url": "https://www.tasteatlas.com/goka"  
    },
    {
        "name":"Mont d'Or",
        "origin":"Doubs, France",
        "lat": 46.93,
        "lng": 6.35,
        "rating":"4.4",
        "fun": "It's one of only a few French cheeses you have to eat with a spoon!",
        "content": "Unpasteurized cow's milk",
        "Url": "https://www.tasteatlas.com/mont-dor" 
    },
    {
        "name":"Kalathaki Limnou",
        "origin":"Lemnos, Greece",
        "lat": 39.87,
        "lng": 25.06,
        "rating":"4.4",
        "fun": "",
        "content": "",
        "Url": "" 
    },
    {
        "name":"Grana Padano",
        "origin":"Lombardy, Italy",
        "lat": 45.48,
        "lng": 9.85,
        "rating":"4.4",
        "fun": "",
        "content": "",
        "Url": "" 
    },
    {
        "name":"Pecorino Romano",
        "origin":"Sardinia, Italy",
        "lat": 40.09,
        "lng": 8.98,
        "rating":"4.4",
        "fun": "",
        "content": "",
        "Url": "" 
    },
    {
        "name":"Anthotyro",
        "origin":"Greece",
        "lat": 39.10,
        "lng": 21.85,
        "rating":"4.4",
        "fun": "",
        "content": "",
        "Url": "" 
    },
    {
        "name":"Burrata di Andria",
        "origin":"Apulia, Italy",
        "lat": 41.01,
        "lng": 16.73,
        "rating":"4.4",
        "fun": "",
        "content": "",
        "Url": "" 
    },
    {
        "name":"Queijo Serpa",
        "origin":"Serpa, Portugal",
        "lat": 37.94,
        "lng": -7.60,
        "rating":"4.4",
        "fun": "",
        "content": "",
        "Url": "" 
    },
    {
        "name":"San Michali",
        "origin":"Syros, Greece",
        "lat": 37.44,
        "lng": 24.94,
        "rating":"4.4",
        "fun": "",
        "content": "",
        "Url": "" 
    },
    {
        "name":"Beaufort",
        "origin":"Beaufort, France",
        "lat": 45.72,
        "lng": 6.58,
        "rating":"4.4",
        "fun": "",
        "content": "",
        "Url": "" 
    },
    {
        "name":"West Country Farmhouse Cheddar",
        "origin":"South West England, England",
        "lat": 51.54,
        "lng": -0.19,
        "rating":"4.4",
        "fun": "",
        "content": "",
        "Url": "" 
    },
    {
        "name":"Queijo de Cabra Transmontano",
        "origin":"Bragança District, Portugal",
        "lat": 41.81,
        "lng": -6.76,
        "rating":"4.4",
        "fun": "",
        "content": "",
        "Url": "" 
    },
    {
        "name":"Ladotyri Mytilinis",
        "origin":"Lesbos, Greece",
        "lat": 39.18,
        "lng": 26.22,
        "rating":"4.4",
        "fun": "",
        "content": "",
        "Url": "" 
    },
    {
        "name":"Comté",
        "origin":"Franche-Comté, France",
        "lat": 47.28,
        "lng": 4.99,
        "rating":"4.4",
        "fun": "",
        "content": "",
        "Url": "" 
    },
    {
        "name":"Tenili",
        "origin":"Samtskhe-Javakheti, Georgia",
        "lat": 41.69,
        "lng": 44.87,
        "rating":"4.4",
        "fun": "",
        "content": "",
        "Url": "" 
    },
    {
        "name":"Sfela",
        "origin":"Messinia, Greece",
        "lat": 37.08,
        "lng": 21.97,
        "rating":"4.4",
        "fun": "",
        "content": "",
        "Url": "" 
    },
    {
        "name":"Arseniko Naxou",
        "origin":"Naxos Island, Greece",
        "lat": 38.56,
        "lng": 26.08,
        "rating":"4.4",
        "fun": "",
        "content": "",
        "Url": "" 
    },
    {
        "name":"Ovčí Salašnícky Údený Syr",
        "origin":"Slovakia",
        "lat": 48.69,
        "lng": 19.75,
        "rating":"4.4",
        "fun": "",
        "content": "",
        "Url": "" 
    },
    {
        "name":"Stracciata",
        "origin":"Molise, Italy",
        "lat": 38.56,
        "lng": 26.08,
        "rating":"4.3",
        "fun": "",
        "content": "",
        "Url": "" 
    },
    {
        "name":"Graviera Agrafon",
        "origin":"Thessaly, Greece",
        "lat": 39.58,
        "lng": 22.24,
        "rating":"4.3",
        "fun": "",
        "content": "",
        "Url": "" 
    },
    {
        "name":"Stracciatella",
        "origin":"Apulia, Italy",
        "lat": 41.01,
        "lng": 16.72,
        "rating":"4.3",
        "fun": "",
        "content": "",
        "Url": "" 
    },
    {
        "name":"Mastelo",
        "origin":"Chios, Greece",
        "lat": 38.36,
        "lng": 26.14,
        "rating":"4.3",
        "fun": "",
        "content": "",
        "Url": "" 
    },
    {
        "name":"Manchego viejo",
        "origin":"Castilla-La Mancha, Spain",
        "lat": 39.27,
        "lng": -1.91,
        "rating":"4.3",
        "fun": "",
        "content": "",
        "Url": "" 
    },
    {
        "name":"Manchego curado",
        "origin":"Castilla-La Mancha, Spain",
        "lat": 39.27,
        "lng": -1.91,
        "rating":"4.3",
        "fun": "",
        "content": "",
        "Url": "" 
    },
    {
        "name":"Crottin de Chavignol",
        "origin":"Chavignol, France",
        "lat": 47.34,
        "lng": 2.80,
        "rating":"4.3",
        "fun": "",
        "content": "",
        "Url": "" 
    },
    {
        "name":"Noord-Hollandse Gouda",
        "origin":"North Holland, Netherlands",
        "lat": 52.69,
        "lng": 4.93,
        "rating":"4.3",
        "fun": "",
        "content": "",
        "Url": "" 
    },
    {
        "name":"Idiazabal",
        "origin":"Basque Country, Spain",
        "lat": 42.96,
        "lng": -2.69,
        "rating":"4.3",
        "fun": "",
        "content": "",
        "Url": "" 
    },
    {
        "name":"Ricotta di Bufala Campana",
        "origin":"Campania, Italy",
        "lat": 40.93,
        "lng": 14.20,
        "rating":"4.3",
        "fun": "",
        "content": "",
        "Url": "" 
    },
    {
        "name":"Xynomyzithra Kritis",
        "origin":"Crete, Greece",
        "lat": 35.25,
        "lng": 24.91,
        "rating":"4.3",
        "fun": "",
        "content": "",
        "Url": "" 
    },
    {
        "name":"Mozzarella",
        "origin":"Campania, Italy",
        "lat": 40.93,
        "lng": 14.20,
        "rating":"4.3",
        "fun": "",
        "content": "",
        "Url": "" 
    },
    {
        "name":"Gorgonzola dolce",
        "origin":"Gorgonzola, Italy",
        "lat": 45.53,
        "lng": 9.41,
        "rating":"4.3",
        "fun": "",
        "content": "",
        "Url": "" 
    },
    {
        "name":"Queijo de Coalho",
        "origin":"Northeast Region, Brazil",
        "lat": -8.08,
        "lng": -34.99,
        "rating":"4.3",
        "fun": "",
        "content": "",
        "Url": "" 
    },
    {
        "name":"Gorgonzola piccante",
        "origin":"Gorgonzola, Italy",
        "lat": 45.53,
        "lng": 9.41,
        "rating":"4.3",
        "fun": "",
        "content": "",
        "Url": "" 
    },
    {
        "name":"Ciliegine mozzarella",
        "origin":"Campania, Italy",
        "lat": 40.93,
        "lng": 14.20,
        "rating":"4.3",
        "fun": "",
        "content": "",
        "Url": "" 
    },
    {
        "name":"Katiki Domokou",
        "origin":"Domokos, Greece",
        "lat": 39.13,
        "lng": 22.30,
        "rating":"4.3",
        "fun": "",
        "content": "",
        "Url": "" 
    },
    {
        "name":"Provolone del Monaco",
        "origin":"Metropolitan City of Naples, Italy",
        "lat": 44.86,
        "lng": -97.60,
        "rating":"4.3",
        "fun": "",
        "content": "",
        "Url": "" 
    },
    {
        "name":"Bryndza Podhalańska",
        "origin":"Podhale, Poland",
        "lat": 50.35,
        "lng": 21.00,
        "rating":"4.3",
        "fun": "",
        "content": "",
        "Url": "" 
    },
    {
        "name":"Oaxaca cheese",
        "origin":"Oaxaca, Mexico",
        "lat": 17.07,
        "lng": -96.73,
        "rating":"4.3",
        "fun": "",
        "content": "",
        "Url": "" 
    },
    {
        "name":"Boerenkaas",
        "origin":"Netherlands",
        "lat": 52.13,
        "lng": 5.29,
        "rating":"4.3",
        "fun": "",
        "content": "",
        "Url": "" 
    },
    {
        "name":"Bundz",
        "origin":"Podhale, Poland",
        "lat": 50.35,
        "lng": 21.00,
        "rating":"4.3",
        "fun": "",
        "content": "",
        "Url": "" 
    },
    {
        "name":"Raclette de Savoie",
        "origin":"Haute-Savoie, France",
        "lat": 46.07,
        "lng": 6.42,
        "rating":"4.3",
        "fun": "",
        "content": "",
        "Url": "" 
    },
    {
        "name":"Bocconcini",
        "origin":"Campania, Italy",
        "lat": 40.92,
        "lng": 14.20,
        "rating":"4.3",
        "fun": "",
        "content": "",
        "Url": "" 
    },
    {
        "name":"Tête de Moine",
        "origin":"Saicourt, Switzerland",
        "lat": 47.24,
        "lng": 7.21,
        "rating":"4.3",
        "fun": "",
        "content": "",
        "Url": ""  
    },
    {
        "name":"Slovenský Oštiepok",
        "origin":"Slovakia",
        "lat": 48.69,
        "lng": 19.70,
        "rating":"4.3",
        "fun": "",
        "content": "",
        "Url": ""  
    },
    {
        "name":"Queso Manchego",
        "origin":"Castilla-La Mancha, Spain",
        "lat": 39.27,
        "lng": -1.91,
        "rating":"4.3",
        "fun": "",
        "content": "",
        "Url": ""  
    },
    {
        "name":"Stracchino di Crescenza",
        "origin":"Lombardy, Italy",
        "lat": 45.48,
        "lng": 9.85,
        "rating":"4.3",
        "fun": "",
        "content": "",
        "Url": ""  
    },
    {
        "name":"Paški sir (Pag cheese)",
        "origin":"Pag, Croatia",
        "lat": 44.44,
        "lng": 15.05,
        "rating":"4.3",
        "fun": "",
        "content": "",
        "Url": ""  
    },
    {
        "name":"Sulguni",
        "origin":"Samegrelo-Upper Svaneti, Georgia",
        "lat": 41.83,
        "lng": 44.80,
        "rating":"4.3",
        "fun": "",
        "content": "",
        "Url": "" 
    },
    {
        "name":"Caciocavallo Silano",
        "origin":"Calabria, Italy",
        "lat": 38.11,
        "lng": 15.65,
        "rating":"4.3",
        "fun": "",
        "content": "",
        "Url": "" 
    },
    {
        "name":"Brie de Melun",
        "origin":"Melun, France",
        "lat": 48.64,
        "lng": 2.51,
        "rating":"4.3",
        "fun": "",
        "content": "",
        "Url": ""  
    },
    {
        "name":"Morbier",
        "origin":"Morbier, France",
        "lat": 46.53,
        "lng": 6.02,
        "rating":"4.3",
        "fun": "",
        "content": "",
        "Url": "" 
    },
    {
        "name":"Galotyri",
        "origin":"Thessaly, Greece",
        "lat": 39.68,
        "lng": 22.24,
        "rating":"4.3",
        "fun": "",
        "content": "",
        "Url": "" 
    },
    {
        "name":"Slovenská Parenica",
        "origin":"Slovakia",
        "lat": 48.67,
        "lng": 19.70,
        "rating":"4.3",
        "fun": "",
        "content": "",
        "Url": "" 
    },
    {
        "name":"Oscypek",
        "origin":"Lesser Poland Voivodeship, Poland",
        "lat": 49.85,
        "lng": 20.25,
        "rating":"4.3",
        "fun": "",
        "content": "",
        "Url": "" 
    },
    {
        "name":"Kefalotyri",
        "origin":"Greece",
        "lat": 39.07,
        "lng": 21.82,
        "rating":"4.3",
        "fun": "",
        "content": "",
        "Url": "" 
    },
    {
        "name":"Reblochon",
        "origin":"Haute-Savoie, France",
        "lat": 46.07,
        "lng": 6.42,
        "rating":"4.2",
        "fun": "",
        "content": "",
        "Url": "" 
    },
    {
        "name":"Taleggio",
        "origin":"Province of Bergamo, Italy",
        "lat": 45.69,
        "lng": 9.67,
        "rating":"4.2",
        "fun": "",
        "content": "",
        "Url": "" 
    },
    {
        "name":"Époisses",
        "origin":"Burgundy, France",
        "lat": 46.38,
        "lng": 4.54,
        "rating":"4.2",
        "fun": "",
        "content": "",
        "Url": "" 
    },
    {
        "name":"Tomme de Savoie",
        "origin":"Savoie, France",
        "lat": 45.50,
        "lng": 6.00,
        "rating":"4.2",
        "fun": "",
        "content": "",
        "Url": "" 
    },
    {
        "name":"Queso Payoyo",
        "origin":"Grazalema, Spain",
        "lat": 36.76,
        "lng": -5.37,
        "rating":"4.2",
        "fun": "",
        "content": "",
        "Url": ""  
    },
    {
        "name":"Tomme des Pyrénées",
        "origin":"Hautes-Pyrénées, France",
        "lat": 43.05,
        "lng": 0.17,
        "rating":"4.2",
        "fun": "",
        "content": "",
        "Url": "" 
    },
    {
        "name":"Formaella Arachovas Parnassou",
        "origin":"Arachova, Greece",
        "lat": 38.43,
        "lng": 22.67,
        "rating":"4.2",
        "fun": "",
        "content": "",
        "Url": "" 
    },
    {
        "name":"Myzithra",
        "origin":"Crete, Greece",
        "lat": 35.25,
        "lng": 24.91,
        "rating":"4.2",
        "fun": "",
        "content": "",
        "Url": ""  
    },
    {
        "name":"Old Amsterdam",
        "origin":"Netherlands",
        "lat": 52.13,
        "lng": 5.29,
        "rating":"4.2",
        "fun": "",
        "content": "",
        "Url": ""  
    },
    {
        "name":"Queijo Minas",
        "origin":"Minas Gerais, Brazil",
        "lat": -18.51,
        "lng": -44.56,
        "rating":"4.2",
        "fun": "",
        "content": "",
        "Url": "" 
    },
    {
        "name":"Bitto",
        "origin":"Valtellina, Italy",
        "lat": 46.17,
        "lng": 9.75,
        "rating":"4.2",
        "fun": "",
        "content": "",
        "Url": "" 
    },
    {
        "name":"Saint-Marcellin",
        "origin":"Saint-Marcellin, France",
        "lat": 45.15,
        "lng": 5.32,
        "rating":"4.2",
        "fun": "",
        "content": "",
        "Url": "" 
    },
    {
        "name":"Gruyère",
        "origin":"Gruyères, Switzerland",
        "lat": 46.58,
        "lng": 7.08,
        "rating":"4.2",
        "fun": "",
        "content": "",
        "Url": "" 
    },
    {
        "name":"Tulum Peyniri",
        "origin":"Turkiye",
        "lat": 41.21,
        "lng": 28.74,
        "rating":"4.2",
        "fun": "",
        "content": "",
        "Url": ""  
    },
    {
        "name":"Manouri",
        "origin":"Thessaly, Greece",
        "lat": 39.58,
        "lng": 22.24,
        "rating":"4.2",
        "fun": "",
        "content": "",
        "Url": "" 
    },
    {
        "name":"Telemea de Ibăneşti",
        "origin":"Ibănești, Romania",
        "lat": 46.77,
        "lng": 24.94,
        "rating":"4.2",
        "fun": "",
        "content": "",
        "Url": "" 
    },
    {
        "name":"Provola",
        "origin":"Campania, Italy",
        "lat": 40.93,
        "lng": 14.20,
        "rating":"4.2",
        "fun": "",
        "content": "",
        "Url": "" 
    },
    {
        "name":"Rocamadour",
        "origin":"Rocamadour, France",
        "lat": 44.80,
        "lng": 1.62,
        "rating":"4.2",
        "fun": "",
        "content": "",
        "Url": "" 
    },
    {
        "name":"Saint Agur",
        "origin":"Beauzac, France",
        "lat": 45.26,
        "lng": 4.10,
        "rating":"4.2",
        "fun": "",
        "content": "",
        "Url": ""  
    },
    {
        "name":"Kopanisti",
        "origin":"Cyclades, Greece",
        "lat": 37.98,
        "lng": 23.74,
        "rating":"4.2",
        "fun": "",
        "content": "",
        "Url": "" 
    },
    {
        "name":"Scamorza",
        "origin":"Apulia, Italy",
        "lat": 41.01,
        "lng": 16.73,
        "rating":"4.2",
        "fun": "",
        "content": "",
        "Url": "" 
    },
    {
        "name":"Queijo de Évora",
        "origin":"Évora District, Portugal",
        "lat": 38.57,
        "lng": -7.91,
        "rating":"4.2",
        "fun": "",
        "content": "",
        "Url": "" 
    },
    {
        "name":"Queijo do Pico",
        "origin":"Pico Island, Portugal",
        "lat": 38.39,
        "lng": -28.25,
        "rating":"4.2",
        "fun": "",
        "content": "",
        "Url": "" 
    },
    {
        "name":"Queijo São Jorge",
        "origin":"São Jorge Island, Portugal",
        "lat": 38.62,
        "lng": -28.04,
        "rating":"4.2",
        "fun": "",
        "content": "",
        "Url": "" 
    },
    {
        "name":"Kasseri",
        "origin":"Thessaly, Greece",
        "lat": 39.58,
        "lng": 22.24,
        "rating":"4.2",
        "fun": "",
        "content": "",
        "Url": "" 
    },
    {
        "name":"Selles-sur-Cher",
        "origin":"Selles-sur-Cher, France",
        "lat": 47.28,
        "lng": 1.55,
        "rating":"4.2",
        "fun": "",
        "content": "",
        "Url": "" 
    },
    {
        "name":"Queso Zamorano",
        "origin":"Province of Zamora, Spain",
        "lat": 39.57,
        "lng": -0.51,
        "rating": "4.2",
        "fun": "",
        "content": "",
        "Url": "" 
    }
]