[
    {
        "name":"Graviera Naxou",
        "origin":"Naxos Island, Greece",
        "lat": 28.56,
        "lng": 26.08,
        "rating":"4.6"
    },
    {
        "name":"Parmigiano Reggiano",
        "origin":"Province of Parma, Italy",
        "lat": 44.81,
        "lng": 10.33,
        "rating":"4.6"
    },
    {
        "name":"Queijo de Azeitão",
        "origin":"Palmela, Portugal",
        "lat": 38.58,
        "lng": -8.90,
        "rating":"4.6"
    },
    {
        "name":"Mozzarella di Bufala Campana",
        "origin":"Campania, Italy",
        "lat": 40.93,
        "lng": 14.20,
        "rating":"4.5"
    },
    {
        "name":"Graviera Kritis",
        "origin":"Crete, Greece",
        "lat": 35.24,
        "lng": 24.91,
        "rating":"4.5"
    },
    {
        "name":"Queijo Serra da Estrela",
        "origin":"Serra da Estrela, Portugal",
        "lat": 40.51,
        "lng": -7.85,
        "rating":"4.5"
    },
    {
        "name":"Pecorino Sardo",
        "origin":"Sardinia, Italy",
        "lat": 40.08,
        "lng": 8.98,
        "rating":"4.5"
    },
    {
        "name":"Kefalograviera",
        "origin":"Epirus, Greece",
        "lat": 39.60,
        "lng": 20.78,
        "rating":"4.5"
    },
    {
        "name":"Burrata",
        "origin":"Apulia, Italy",
        "lat": 41.01,
        "lng": 16.73,
        "rating":"4.4"
    },
    {
        "name":"Saint-Félicien",
        "origin":"Rhône-Alpes, France",
        "lat": 45.46,
        "lng": 4.62,
        "rating":"4.4"
    },
    {
        "name":"Metsovone",
        "origin":"Metsovo, Greece",
        "lat": 39.77,
        "lng": 21.18,
        "rating":"4.4"
    },
    {
        "name":"Pecorino Toscano",
        "origin":"Tuscany, Italy",
        "lat": 43.77,
        "lng": 11.25,
        "rating":"4.4"
    },
    {
        "name":"Saint-André",
        "origin":"Coutances, France",
        "lat": 49.05,
        "lng": -1.44,
        "rating":"4.4"
    },
    {
        "name":"Pecorino Siciliano",
        "origin":"Sicily, Italy",
        "lat": 37.15,
        "lng": 13.79,
        "rating":"4.4"
    },
    {
        "name":"Redykołka",
        "origin":"Podhale, Poland",
        "lat": 50.35,
        "lng": 21.00,
        "rating":"4.4"
    },
    {
        "name":"Livanjski sir",
        "origin":"Livno, Bosnia and Herzegovina",
        "lat": 43.85,
        "lng": 17.00,
        "rating":"4.4"
    },
    {
        "name":"Brillat-Savarin",
        "origin":"Forges-les-Eaux, France",
        "lat": 49.61,
        "lng": 1.55,
        "rating":"4.4"
    },
    {
        "name":"Canastra",
        "origin":"Minas Gerais, Brazil",
        "lat": -18.51,
        "lng": -44.56,
        "rating":"4.4"
    },
    {
        "name":"Gołka",
        "origin":"Silesian Voivodeship, Poland",
        "lat": 50.25,
        "lng": 19.00,
        "rating":"4.4"
    },
    {
        "name":"Mont d'Or",
        "origin":"Doubs, France",
        "lat": 46.93,
        "lng": 6.35,
        "rating":"4.4"
    },
    {
        "name":"Kalathaki Limnou",
        "origin":"Lemnos, Greece",
        "lat": 39.87,
        "lng": 25.06,
        "rating":"4.4"
    },
    {
        "name":"Grana Padano",
        "origin":"Lombardy, Italy",
        "lat": 45.48,
        "lng": 9.85,
        "rating":"4.4"
    },
    {
        "name":"Pecorino Romano",
        "origin":"Sardinia, Italy",
        "lat": 40.09,
        "lng": 8.98,
        "rating":"4.4"
    },
    {
        "name":"Anthotyro",
        "origin":"Greece",
        "lat": 39.10,
        "lng": 21.85,
        "rating":"4.4"
    },
    {
        "name":"Burrata di Andria",
        "origin":"Apulia, Italy",
        "lat": 41.01,
        "lng": 16.73,
        "rating":"4.4"
    },
    {
        "name":"Queijo Serpa",
        "origin":"Serpa, Portugal",
        "lat": 37.94,
        "lng": -7.60,
        "rating":"4.4"
    },
    {
        "name":"San Michali",
        "origin":"Syros, Greece",
        "lat": 37.44,
        "lng": 24.94,
        "rating":"4.4"
    },
    {
        "name":"Beaufort",
        "origin":"Beaufort, France",
        "lat": 45.72,
        "lng": 6.58,
        "rating":"4.4"
    },
    {
        "name":"West Country Farmhouse Cheddar",
        "origin":"South West England, England",
        "lat": 51.54,
        "lng": -0.19,
        "rating":"4.4"
    },
    {
        "name":"Queijo de Cabra Transmontano",
        "origin":"Bragança District, Portugal",
        "lat": 41.81,
        "lng": -6.76,
        "rating":"4.4"
    },
    {
        "name":"Ladotyri Mytilinis",
        "origin":"Lesbos, Greece",
        "lat": 39.18,
        "lng": 26.22,
        "rating":"4.4"
    },
    {
        "name":"Comté",
        "origin":"Franche-Comté, France",
        "lat": 47.28,
        "lng": 4.99,
        "rating":"4.4"
    },
    {
        "name":"Tenili",
        "origin":"Samtskhe-Javakheti, Georgia",
        "lat": 41.69,
        "lng": 44.87,
        "rating":"4.4"
    },
    {
        "name":"Sfela",
        "origin":"Messinia, Greece",
        "lat": 37.08,
        "lng": 21.97,
        "rating":"4.4"
    },
    {
        "name":"Arseniko Naxou",
        "origin":"Naxos Island, Greece",
        "lat": 38.56,
        "lng": 26.08,
        "rating":"4.4"
    },
    {
        "name":"Ovčí Salašnícky Údený Syr",
        "origin":"Slovakia",
        "lat": 48.69,
        "lng": 19.75,
        "rating":"4.4"
    },
    {
        "name":"Stracciata",
        "origin":"Molise, Italy",
        "lat": 38.56,
        "lng": 26.08,
        "rating":"4.3"
    },
    {
        "name":"Graviera Agrafon",
        "origin":"Thessaly, Greece",
        "lat": 39.58,
        "lng": 22.24,
        "rating":"4.3"
    },
    {
        "name":"Stracciatella",
        "origin":"Apulia, Italy",
        "lat": 41.01,
        "lng": 16.72,
        "rating":"4.3"
    },
    {
        "name":"Mastelo",
        "origin":"Chios, Greece",
        "lat": 38.36,
        "lng": 26.14,
        "rating":"4.3"
    },
    {
        "name":"Manchego viejo",
        "origin":"Castilla-La Mancha, Spain",
        "lat": 39.27,
        "lng": -1.91,
        "rating":"4.3"
    },
    {
        "name":"Manchego curado",
        "origin":"Castilla-La Mancha, Spain",
        "lat": 39.27,
        "lng": -1.91,
        "rating":"4.3"
    },
    {
        "name":"Crottin de Chavignol",
        "origin":"Chavignol, France",
        "lat": 47.34,
        "lng": 2.80,
        "rating":"4.3"
    },
    {
        "name":"Noord-Hollandse Gouda",
        "origin":"North Holland, Netherlands",
        "lat": 52.69,
        "lng": 4.93,
        "rating":"4.3"
    },
    {
        "name":"Idiazabal",
        "origin":"Basque Country, Spain",
        "lat": 42.96,
        "lng": -2.69,
        "rating":"4.3"
    },
    {
        "name":"Ricotta di Bufala Campana",
        "origin":"Campania, Italy",
        "lat": 40.93,
        "lng": 14.20,
        "rating":"4.3"
    },
    {
        "name":"Xynomyzithra Kritis",
        "origin":"Crete, Greece",
        "lat": 35.25,
        "lng": 24.91,
        "rating":"4.3"
    },
    {
        "name":"Mozzarella",
        "origin":"Campania, Italy",
        "lat": 40.93,
        "lng": 14.20,
        "rating":"4.3"
    },
    {
        "name":"Gorgonzola dolce",
        "origin":"Gorgonzola, Italy",
        "lat": 45.53,
        "lng": 9.41,
        "rating":"4.3"
    },
    {
        "name":"Queijo de Coalho",
        "origin":"Northeast Region, Brazil",
        "lat": -8.08,
        "lng": -34.99,
        "rating":"4.3"
    },
    {
        "name":"Gorgonzola piccante",
        "origin":"Gorgonzola, Italy",
        "lat": 45.53,
        "lng": 9.41,
        "rating":"4.3"
    },
    {
        "name":"Ciliegine mozzarella",
        "origin":"Campania, Italy",
        "lat": 40.93,
        "lng": 14.20,
        "rating":"4.3"
    },
    {
        "name":"Katiki Domokou",
        "origin":"Domokos, Greece",
        "lat": 39.13,
        "lng": 22.30,
        "rating":"4.3"
    },
    {
        "name":"Provolone del Monaco",
        "origin":"Metropolitan City of Naples, Italy",
        "lat": 44.86,
        "lng": -97.60,
        "rating":"4.3"
    },
    {
        "name":"Bryndza Podhalańska",
        "origin":"Podhale, Poland",
        "lat": 50.35,
        "lng": 21.00,
        "rating":"4.3"
    },
    {
        "name":"Oaxaca cheese",
        "origin":"Oaxaca, Mexico",
        "lat": 17.07,
        "lng": -96.73,
        "rating":"4.3"
    },
    {
        "name":"Boerenkaas",
        "origin":"Netherlands",
        "lat": 52.13,
        "lng": 5.29,
        "rating":"4.3"
    },
    {
        "name":"Bundz",
        "origin":"Podhale, Poland",
        "lat": 50.35,
        "lng": 21.00,
        "rating":"4.3"
    },
    {
        "name":"Raclette de Savoie",
        "origin":"Haute-Savoie, France",
        "lat": 46.07,
        "lng": 6.42,
        "rating":"4.3"
    },
    {
        "name":"Bocconcini",
        "origin":"Campania, Italy",
        "lat": 40.92,
        "lng": 14.20,
        "rating":"4.3"
    },
    {
        "name":"Tête de Moine",
        "origin":"Saicourt, Switzerland",
        "lat": 47.24,
        "lng": 7.21,
        "rating":"4.3"
    },
    {
        "name":"Slovenský Oštiepok",
        "origin":"Slovakia",
        "lat": 48.69,
        "lng": 19.70,
        "rating":"4.3"
    },
    {
        "name":"Queso Manchego",
        "origin":"Castilla-La Mancha, Spain",
        "lat": 39.27,
        "lng": -1.91,
        "rating":"4.3"
    },
    {
        "name":"Stracchino di Crescenza",
        "origin":"Lombardy, Italy",
        "lat": 45.48,
        "lng": 9.85,
        "rating":"4.3"
    },
    {
        "name":"Paški sir (Pag cheese)",
        "origin":"Pag, Croatia",
        "lat": 44.44,
        "lng": 15.05,
        "rating":"4.3"
    },
    {
        "name":"Sulguni",
        "origin":"Samegrelo-Upper Svaneti, Georgia",
        "lat": 41.83,
        "lng": 44.80,
        "rating":"4.3"
    },
    {
        "name":"Caciocavallo Silano",
        "origin":"Calabria, Italy",
        "lat": 38.11,
        "lng": 15.65,
        "rating":"4.3"
    },
    {
        "name":"Brie de Melun",
        "origin":"Melun, France",
        "lat": 48.64,
        "lng": 2.51,
        "rating":"4.3"
    },
    {
        "name":"Morbier",
        "origin":"Morbier, France",
        "lat": 46.53,
        "lng": 6.02,
        "rating":"4.3"
    },
    {
        "name":"Galotyri",
        "origin":"Thessaly, Greece",
        "lat": 39.68,
        "lng": 22.24,
        "rating":"4.3"
    },
    {
        "name":"Slovenská Parenica",
        "origin":"Slovakia",
        "lat": 48.67,
        "lng": 19.70,
        "rating":"4.3"
    },
    {
        "name":"Oscypek",
        "origin":"Lesser Poland Voivodeship, Poland",
        "lat": 49.85,
        "lng": 20.25,
        "rating":"4.3"
    },
    {
        "name":"Kefalotyri",
        "origin":"Greece",
        "lat": 39.07,
        "lng": 21.82,
        "rating":"4.3"
    },
    {
        "name":"Reblochon",
        "origin":"Haute-Savoie, France",
        "lat": 46.07,
        "lng": 6.42,
        "rating":"4.2"
    },
    {
        "name":"Taleggio",
        "origin":"Province of Bergamo, Italy",
        "lat": 45.69,
        "lng": 9.67,
        "rating":"4.2"
    },
    {
        "name":"Époisses",
        "origin":"Burgundy, France",
        "lat": 46.38,
        "lng": 4.54,
        "rating":"4.2"
    },
    {
        "name":"Tomme de Savoie",
        "origin":"Savoie, France",
        "lat": 45.50,
        "lng": 6.00,
        "rating":"4.2"
    },
    {
        "name":"Queso Payoyo",
        "origin":"Grazalema, Spain",
        "lat": 36.76,
        "lng": -5.37,
        "rating":"4.2"
    },
    {
        "name":"Tomme des Pyrénées",
        "origin":"Hautes-Pyrénées, France",
        "lat": 43.05,
        "lng": 0.17,
        "rating":"4.2"
    },
    {
        "name":"Formaella Arachovas Parnassou",
        "origin":"Arachova, Greece",
        "lat": 38.43,
        "lng": 22.67,
        "rating":"4.2"
    },
    {
        "name":"Myzithra",
        "origin":"Crete, Greece",
        "lat": 35.25,
        "lng": 24.91,
        "rating":"4.2"
    },
    {
        "name":"Old Amsterdam",
        "origin":"Netherlands",
        "lat": 52.13,
        "lng": 5.29,
        "rating":"4.2"
    },
    {
        "name":"Queijo Minas",
        "origin":"Minas Gerais, Brazil",
        "lat": -18.51,
        "lng": -44.56,
        "rating":"4.2"
    },
    {
        "name":"Bitto",
        "origin":"Valtellina, Italy",
        "lat": 46.17,
        "lng": 9.75,
        "rating":"4.2"
    },
    {
        "name":"Saint-Marcellin",
        "origin":"Saint-Marcellin, France",
        "lat": 45.15,
        "lng": 5.32,
        "rating":"4.2"
    },
    {
        "name":"Gruyère",
        "origin":"Gruyères, Switzerland",
        "lat": 46.58,
        "lng": 7.08,
        "rating":"4.2"
    },
    {
        "name":"Tulum Peyniri",
        "origin":"Turkiye",
        "lat": 41.21,
        "lng": 28.74,
        "rating":"4.2"
    },
    {
        "name":"Manouri",
        "origin":"Thessaly, Greece",
        "lat": 39.58,
        "lng": 22.24,
        "rating":"4.2"
    },
    {
        "name":"Telemea de Ibăneşti",
        "origin":"Ibănești, Romania",
        "lat": 46.77,
        "lng": 24.94,
        "rating":"4.2"
    },
    {
        "name":"Provola",
        "origin":"Campania, Italy",
        "lat": 40.93,
        "lng": 14.20,
        "rating":"4.2"
    },
    {
        "name":"Rocamadour",
        "origin":"Rocamadour, France",
        "lat": 44.80,
        "lng": 1.62,
        "rating":"4.2"
    },
    {
        "name":"Saint Agur",
        "origin":"Beauzac, France",
        "lat": 45.26,
        "lng": 4.10,
        "rating":"4.2"
    },
    {
        "name":"Kopanisti",
        "origin":"Cyclades, Greece",
        "lat": 37.98,
        "lng": 23.74,
        "rating":"4.2"
    },
    {
        "name":"Scamorza",
        "origin":"Apulia, Italy",
        "lat": 41.01,
        "lng": 16.73,
        "rating":"4.2"
    },
    {
        "name":"Queijo de Évora",
        "origin":"Évora District, Portugal",
        "lat": 38.57,
        "lng": -7.91,
        "rating":"4.2"
    },
    {
        "name":"Queijo do Pico",
        "origin":"Pico Island, Portugal",
        "lat": 38.39,
        "lng": -28.25,
        "rating":"4.2"
    },
    {
        "name":"Queijo São Jorge",
        "origin":"São Jorge Island, Portugal",
        "lat": 38.62,
        "lng": -28.04,
        "rating":"4.2"
    },
    {
        "name":"Kasseri",
        "origin":"Thessaly, Greece",
        "lat": 39.58,
        "lng": 22.24,
        "rating":"4.2"
    },
    {
        "name":"Selles-sur-Cher",
        "origin":"Selles-sur-Cher, France",
        "lat": 47.28,
        "lng": 1.55,
        "rating":"4.2"
    },
    {
        "name":"Queso Zamorano",
        "origin":"Province of Zamora, Spain",
        "lat": 39.57,
        "lng": -0.51,
        "rating":"4.2"
    }
]